{"businesses": [{"id": "RfxOtJ4SQmEeVX_XjFLWUQ", "alias": "otis-brooklyn-2", "name": "Otis", "image_url": "https://s3-media1.fl.yelpcdn.com/bphoto/2-wCZkm7v_aIvHuzuTsnhA/o.jpg", "is_closed": false, "url": "https://www.yelp.com/biz/otis-brooklyn-2?adjust_creative=umuXYnmbREaxDykzV5C6ZQ&utm_campaign=yelp_api_v3&utm_medium=api_v3_business_search&utm_source=umuXYnmbREaxDykzV5C6ZQ", "review_count": 294, "categories": [{"alias": "newamerican", "title": "American (New)"}, {"alias": "cocktailbars", "title": "Cocktail Bars"}], "rating": 5.0, "coordinates": {"latitude": 40.706011, "longitude": -73.932598}, "transactions": [], "price": "$$", "location": {"address1": "18 Harrison Pl", "address2": null, "address3": "", "city": "Brooklyn", "zip_code": "11206", "country": "US", "state": "NY", "display_address": ["18 Harrison Pl", "Brooklyn, NY 11206"]}, "phone": "+16468860601", "display_phone": "(646) 886-0601", "distance": 5200.877004016517}, {"id": "FZYmp5c1VtWNfe635G_wsQ", "alias": "taste-of-heaven-brooklyn", "name": "Taste of Heaven", "image_url": "https://s3-media3.fl.yelpcdn.com/bphoto/SNiWVU6gk8UyVFS44LtdKg/o.jpg", "is_closed": false, "url": "https://www.yelp.com/biz/taste-of-heaven-brooklyn?adjust_creative=umuXYnmbREaxDykzV5C6ZQ&utm_campaign=yelp_api_v3&utm_medium=api_v3_business_search&utm_source=umuXYnmbREaxDykzV5C6ZQ", "review_count": 135, "categories": [{"alias": "soulfood", "title": "Soul Food"}], "rating": 5.0, "coordinates": {"latitude": 40.717115, "longitude": -73.940613}, "transactions": ["pickup"], "price": "$$", "location": {"address1": "251 Jackson St", "address2": "", "address3": "", "city": "Brooklyn", "zip_code": "11211", "country": "US", "state": "NY", "display_address": ["251 Jackson St", "Brooklyn, NY 11211"]}, "phone": "+17185763146", "display_phone": "(718) 576-3146", "distance": 4706.918985703231}, {"id": "MNNpsRXe7Wt5m3Jla9Wk0w", "alias": "the-alcove-sunnyside", "name": "The Alcove", "image_url": "https://s3-media1.fl.yelpcdn.com/bphoto/-Q8lxKzqRRrNrOnYZSHvmg/o.jpg", "is_closed": false, "url": "https://www.yelp.com/biz/the-alcove-sunnyside?adjust_creative=umuXYnmbREaxDykzV5C6ZQ&utm_campaign=yelp_api_v3&utm_medium=api_v3_business_search&utm_source=umuXYnmbREaxDykzV5C6ZQ", "review_count": 850, "categories": [{"alias": "gastropubs", "title": "Gastropubs"}, {"alias": "tapas", "title": "Tapas Bars"}, {"alias": "breakfast_brunch", "title": "Breakfast & Brunch"}], "rating": 5.0, "coordinates": {"latitude": 40.7459065, "longitude": -73.915103}, "transactions": [], "price": "$$", "location": {"address1": "41-11 49th St", "address2": "", "address3": "", "city": "Sunnyside", "zip_code": "11104", "country": "US", "state": "NY", "display_address": ["41-11 49th St", "Sunnyside, NY 11104"]}, "phone": "+13478134159", "display_phone": "(347) 813-4159", "distance": 8045.510107980188}, {"id": "VvsZAnEwU4c8Xkyrzx05Nw", "alias": "anytime-new-york", "name": "Anytime", "image_url": "https://s3-media3.fl.yelpcdn.com/bphoto/Df_R8u2VhDhu2Y1Wq_0-hw/o.jpg", "is_closed": false, "url": "https://www.yelp.com/biz/anytime-new-york?adjust_creative=umuXYnmbREaxDykzV5C6ZQ&utm_campaign=yelp_api_v3&utm_medium=api_v3_business_search&utm_source=umuXYnmbREaxDykzV5C6ZQ", "review_count": 1396, "categories": [{"alias": "korean", "title": "Korean"}, {"alias": "newamerican", "title": "American (New)"}, {"alias": "tapasmallplates", "title": "Tapas/Small Plates"}], "rating": 4.5, "coordinates": {"latitude": 40.74779, "longitude": -73.98674}, "transactions": ["restaurant_reservation", "delivery", "pickup"], "price": "$$", "location": {"address1": "23 W 32nd St", "address2": "Fl 3", "address3": "", "city": "New York", "zip_code": "10001", "country": "US", "state": "NY", "display_address": ["23 W 32nd St", "Fl 3", "New York, NY 10001"]}, "phone": "+16466697733", "display_phone": "(646) 669-7733", "distance": 4761.966725883583}, {"id": "nSUIB7itn5ufTUzwa1IgxA", "alias": "frenchys-food-truck-brooklyn", "name": "Frenchy's Food Truck", "image_url": "https://s3-media4.fl.yelpcdn.com/bphoto/KbwmtsdHmqAaUKgWMkHVDA/o.jpg", "is_closed": false, "url": "https://www.yelp.com/biz/frenchys-food-truck-brooklyn?adjust_creative=umuXYnmbREaxDykzV5C6ZQ&utm_campaign=yelp_api_v3&utm_medium=api_v3_business_search&utm_source=umuXYnmbREaxDykzV5C6ZQ", "review_count": 75, "categories": [{"alias": "coffee", "title": "Coffee & Tea"}, {"alias": "french", "title": "French"}, {"alias": "foodtrucks", "title": "Food Trucks"}], "rating": 5.0, "coordinates": {"latitude": 40.6706988393431, "longitude": -73.9577984064817}, "transactions": [], "price": "$", "location": {"address1": "341 Eastern Pkwy", "address2": "", "address3": null, "city": "Brooklyn", "zip_code": "11238", "country": "US", "state": "NY", "display_address": ["341 Eastern Pkwy", "Brooklyn, NY 11238"]}, "phone": "+16464682861", "display_phone": "(646) 468-2861", "distance": 4939.19838685282}, {"id": "YdFFUP3-PBzBsE3j75XwaQ", "alias": "panzerotti-bites-brooklyn", "name": "Panzerotti Bites", "image_url": "https://s3-media2.fl.yelpcdn.com/bphoto/HbRWIZCVfSCec8FSlvyLrQ/o.jpg", "is_closed": false, "url": "https://www.yelp.com/biz/panzerotti-bites-brooklyn?adjust_creative=umuXYnmbREaxDykzV5C6ZQ&utm_campaign=yelp_api_v3&utm_medium=api_v3_business_search&utm_source=umuXYnmbREaxDykzV5C6ZQ", "review_count": 120, "categories": [{"alias": "italian", "title": "Italian"}], "rating": 5.0, "coordinates": {"latitude": 40.683715, "longitude": -73.99227}, "transactions": ["delivery", "pickup"], "price": "$$", "location": {"address1": "235 Smith St", "address2": null, "address3": "", "city": "Brooklyn", "zip_code": "11231", "country": "US", "state": "NY", "display_address": ["235 Smith St", "Brooklyn, NY 11231"]}, "phone": "+17184889300", "display_phone": "(718) 488-9300", "distance": 2421.6511843583653}, {"id": "3rZwXDjkyDLAHNSdPUI5WA", "alias": "korai-kitchen-jersey-city", "name": "Korai Kitchen", "image_url": "https://s3-media1.fl.yelpcdn.com/bphoto/czVFamLw-OlToyBTn_pCcQ/o.jpg", "is_closed": false, "url": "https://www.yelp.com/biz/korai-kitchen-jersey-city?adjust_creative=umuXYnmbREaxDykzV5C6ZQ&utm_campaign=yelp_api_v3&utm_medium=api_v3_business_search&utm_source=umuXYnmbREaxDykzV5C6ZQ", "review_count": 254, "categories": [{"alias": "bangladeshi", "title": "Bangladeshi"}, {"alias": "buffets", "title": "Buffets"}], "rating": 5.0, "coordinates": {"latitude": 40.733896, "longitude": -74.059151}, "transactions": ["delivery"], "price": "$$", "location": {"address1": "576 Summit Ave", "address2": null, "address3": "", "city": "Jersey City", "zip_code": "07306", "country": "US", "state": "NJ", "display_address": ["576 Summit Ave", "Jersey City, NJ 07306"]}, "phone": "+12017216566", "display_phone": "(201) 721-6566", "distance": 6315.879341411726}, {"id": "SULHf6nGQ8sK0UpG1XU30w", "alias": "los-tacos-no-1-new-york-3", "name": "Los Tacos No.1", "image_url": "https://s3-media4.fl.yelpcdn.com/bphoto/5wEe4FCwda16knmBHSsX0Q/o.jpg", "is_closed": false, "url": "https://www.yelp.com/biz/los-tacos-no-1-new-york-3?adjust_creative=umuXYnmbREaxDykzV5C6ZQ&utm_campaign=yelp_api_v3&utm_medium=api_v3_business_search&utm_source=umuXYnmbREaxDykzV5C6ZQ", "review_count": 1748, "categories": [{"alias": "tacos", "title": "Tacos"}], "rating": 4.5, "coordinates": {"latitude": 40.7575067, "longitude": -73.9877717}, "transactions": [], "price": "$", "location": {"address1": "229 W 43rd St", "address2": "", "address3": null, "city": "New York", "zip_code": "10036", "country": "US", "state": "NY", "display_address": ["229 W 43rd St", "New York, NY 10036"]}, "phone": "+12125744696", "display_phone": "(212) 574-4696", "distance": 5815.027424033859}, {"id": "VLGmFHE4s0Sfu0piMVQa1Q", "alias": "hold-fast-kitchen-and-spirits-new-york", "name": "Hold Fast Kitchen and Spirits", "image_url": "https://s3-media2.fl.yelpcdn.com/bphoto/A0KyqQHE3euVnUVVDhqrlg/o.jpg", "is_closed": false, "url": "https://www.yelp.com/biz/hold-fast-kitchen-and-spirits-new-york?adjust_creative=umuXYnmbREaxDykzV5C6ZQ&utm_campaign=yelp_api_v3&utm_medium=api_v3_business_search&utm_source=umuXYnmbREaxDykzV5C6ZQ", "review_count": 323, "categories": [{"alias": "cocktailbars", "title": "Cocktail Bars"}, {"alias": "tapasmallplates", "title": "Tapas/Small Plates"}], "rating": 5.0, "coordinates": {"latitude": 40.76064, "longitude": -73.99023}, "transactions": [], "price": "$$", "location": {"address1": "364 W 46th St", "address2": null, "address3": "", "city": "New York", "zip_code": "10036", "country": "US", "state": "NY", "display_address": ["364 W 46th St", "New York, NY 10036"]}, "phone": "+19172616691", "display_phone": "(917) 261-6691", "distance": 6140.252693485879}, {"id": "43mQbsfP4ZiCN0z8SM475Q", "alias": "cafe-talya-bayonne", "name": "Cafe Talya", "image_url": "https://s3-media2.fl.yelpcdn.com/bphoto/uGot0WUNwl52w299u9UuuA/o.jpg", "is_closed": false, "url": "https://www.yelp.com/biz/cafe-talya-bayonne?adjust_creative=umuXYnmbREaxDykzV5C6ZQ&utm_campaign=yelp_api_v3&utm_medium=api_v3_business_search&utm_source=umuXYnmbREaxDykzV5C6ZQ", "review_count": 252, "categories": [{"alias": "cafes", "title": "Cafes"}, {"alias": "mediterranean", "title": "Mediterranean"}, {"alias": "tradamerican", "title": "American (Traditional)"}], "rating": 5.0, "coordinates": {"latitude": 40.6844885741496, "longitude": -74.1073497064864}, "transactions": [], "price": "$", "location": {"address1": "218 Ave B", "address2": "", "address3": "", "city": "Bayonne", "zip_code": "07002", "country": "US", "state": "NJ", "display_address": ["218 Ave B", "Bayonne, NJ 07002"]}, "phone": "+12015355333", "display_phone": "(201) 535-5333", "distance": 9812.16088238592}, {"id": "v1DHGRNCH9247WLYoaoA9A", "alias": "l-industrie-pizzeria-brooklyn", "name": "L'industrie Pizzeria", "image_url": "https://s3-media2.fl.yelpcdn.com/bphoto/SRL_RztRRUijgQwt67daGw/o.jpg", "is_closed": false, "url": "https://www.yelp.com/biz/l-industrie-pizzeria-brooklyn?adjust_creative=umuXYnmbREaxDykzV5C6ZQ&utm_campaign=yelp_api_v3&utm_medium=api_v3_business_search&utm_source=umuXYnmbREaxDykzV5C6ZQ", "review_count": 519, "categories": [{"alias": "pizza", "title": "Pizza"}], "rating": 4.5, "coordinates": {"latitude": 40.71162, "longitude": -73.95783}, "transactions": ["delivery", "pickup"], "price": "$", "location": {"address1": "254 S 2nd St", "address2": "", "address3": "", "city": "Brooklyn", "zip_code": "11211", "country": "US", "state": "NY", "display_address": ["254 S 2nd St", "Brooklyn, NY 11211"]}, "phone": "+17185990002", "display_phone": "(718) 599-0002", "distance": 3145.016041338447}, {"id": "F3XeukXccFSIC7taECxTkQ", "alias": "andrea-salumeria-jersey-city", "name": "Andrea Salumeria", "image_url": "https://s3-media4.fl.yelpcdn.com/bphoto/iMDD-IqgaP_spfMACKhjOA/o.jpg", "is_closed": false, "url": "https://www.yelp.com/biz/andrea-salumeria-jersey-city?adjust_creative=umuXYnmbREaxDykzV5C6ZQ&utm_campaign=yelp_api_v3&utm_medium=api_v3_business_search&utm_source=umuXYnmbREaxDykzV5C6ZQ", "review_count": 246, "categories": [{"alias": "delis", "title": "Delis"}], "rating": 5.0, "coordinates": {"latitude": 40.74355, "longitude": -74.0514}, "transactions": ["delivery", "pickup"], "price": "$", "location": {"address1": "247 Central Ave", "address2": "Apt 3", "address3": "", "city": "Jersey City", "zip_code": "07307", "country": "US", "state": "NJ", "display_address": ["247 Central Ave", "Apt 3", "Jersey City, NJ 07307"]}, "phone": "+12016531666", "display_phone": "(201) 653-1666", "distance": 6405.773636586935}, {"id": "Dwg-RgHUXsBfAi7G0V8LIg", "alias": "green-juice-cafe-new-york", "name": "Green Juice Cafe", "image_url": "https://s3-media4.fl.yelpcdn.com/bphoto/dHF2qESxWSTOvF5KhVw_NQ/o.jpg", "is_closed": false, "url": "https://www.yelp.com/biz/green-juice-cafe-new-york?adjust_creative=umuXYnmbREaxDykzV5C6ZQ&utm_campaign=yelp_api_v3&utm_medium=api_v3_business_search&utm_source=umuXYnmbREaxDykzV5C6ZQ", "review_count": 198, "categories": [{"alias": "sandwiches", "title": "Sandwiches"}, {"alias": "coffee", "title": "Coffee & Tea"}, {"alias": "juicebars", "title": "Juice Bars & Smoothies"}], "rating": 5.0, "coordinates": {"latitude": 40.85188, "longitude": -73.9346599}, "transactions": [], "price": "$", "location": {"address1": "4316 Broadway", "address2": null, "address3": "", "city": "New York", "zip_code": "10033", "country": "US", "state": "NY", "display_address": ["4316 Broadway", "New York, NY 10033"]}, "phone": "+16469187730", "display_phone": "(646) 918-7730", "distance": 17042.813174746992}, {"id": "uYMimeHJ5XBGkyTrg8GXhw", "alias": "joey-bats-caf\u00e9-new-york", "name": "Joey Bats Caf\u00e9", "image_url": "https://s3-media4.fl.yelpcdn.com/bphoto/CqV9gBjqIfuwlkWAkioKAw/o.jpg", "is_closed": false, "url": "https://www.yelp.com/biz/joey-bats-caf%C3%A9-new-york?adjust_creative=umuXYnmbREaxDykzV5C6ZQ&utm_campaign=yelp_api_v3&utm_medium=api_v3_business_search&utm_source=umuXYnmbREaxDykzV5C6ZQ", "review_count": 250, "categories": [{"alias": "desserts", "title": "Desserts"}, {"alias": "portuguese", "title": "Portuguese"}, {"alias": "cafes", "title": "Cafes"}], "rating": 5.0, "coordinates": {"latitude": 40.72006, "longitude": -73.99037}, "transactions": ["delivery", "pickup"], "price": "$", "location": {"address1": "129 Allen St", "address2": null, "address3": null, "city": "New York", "zip_code": "10002", "country": "US", "state": "NY", "display_address": ["129 Allen St", "New York, NY 10002"]}, "phone": "+12129511189", "display_phone": "(212) 951-1189", "distance": 1658.9638318560021}, {"id": "UtknyDJ_DPut-FKRqs0wpQ", "alias": "royal-grill-halal-food-new-york-2", "name": "Royal Grill Halal Food", "image_url": "https://s3-media2.fl.yelpcdn.com/bphoto/l5sMBPBuBEny7bueeW9Z0Q/o.jpg", "is_closed": false, "url": "https://www.yelp.com/biz/royal-grill-halal-food-new-york-2?adjust_creative=umuXYnmbREaxDykzV5C6ZQ&utm_campaign=yelp_api_v3&utm_medium=api_v3_business_search&utm_source=umuXYnmbREaxDykzV5C6ZQ", "review_count": 350, "categories": [{"alias": "halal", "title": "Halal"}, {"alias": "foodtrucks", "title": "Food Trucks"}], "rating": 5.0, "coordinates": {"latitude": 40.75614, "longitude": -73.98316}, "transactions": ["pickup"], "price": "$", "location": {"address1": "44TH St And 6th Ave", "address2": "", "address3": "", "city": "New York", "zip_code": "10018", "country": "US", "state": "NY", "display_address": ["44TH St And 6th Ave", "New York, NY 10018"]}, "phone": "+13477240504", "display_phone": "(347) 724-0504", "distance": 5714.086719194227}, {"id": "jWuUibgnTGsJibOrr6UUSw", "alias": "haidilao-hotpot-flushing", "name": "Haidilao Hotpot", "image_url": "https://s3-media3.fl.yelpcdn.com/bphoto/WiGBUxZsBHYIMiUMQTTH7Q/o.jpg", "is_closed": false, "url": "https://www.yelp.com/biz/haidilao-hotpot-flushing?adjust_creative=umuXYnmbREaxDykzV5C6ZQ&utm_campaign=yelp_api_v3&utm_medium=api_v3_business_search&utm_source=umuXYnmbREaxDykzV5C6ZQ", "review_count": 753, "categories": [{"alias": "hotpot", "title": "Hot Pot"}, {"alias": "chinese", "title": "Chinese"}], "rating": 4.5, "coordinates": {"latitude": 40.7612633, "longitude": -73.8280301}, "transactions": ["restaurant_reservation"], "location": {"address1": "138-23 39th Ave", "address2": null, "address3": null, "city": "Flushing", "zip_code": "11354", "country": "US", "state": "NY", "display_address": ["138-23 39th Ave", "Flushing, NY 11354"]}, "phone": "+19172318888", "display_phone": "(917) 231-8888", "distance": 15322.43486144001}, {"id": "u-zjpM-TrS4GCZlHPFZmAw", "alias": "tonys-beechhurst-deli-whitestone", "name": "Tony's Beechhurst Deli", "image_url": "https://s3-media1.fl.yelpcdn.com/bphoto/FsPImtK1iR0zBkWyj8J7Og/o.jpg", "is_closed": false, "url": "https://www.yelp.com/biz/tonys-beechhurst-deli-whitestone?adjust_creative=umuXYnmbREaxDykzV5C6ZQ&utm_campaign=yelp_api_v3&utm_medium=api_v3_business_search&utm_source=umuXYnmbREaxDykzV5C6ZQ", "review_count": 178, "categories": [{"alias": "delis", "title": "Delis"}, {"alias": "sandwiches", "title": "Sandwiches"}], "rating": 5.0, "coordinates": {"latitude": 40.7917673014336, "longitude": -73.8074826952133}, "transactions": [], "price": "$$", "location": {"address1": "1118 154th St", "address2": "", "address3": "", "city": "Whitestone", "zip_code": "11357", "country": "US", "state": "NY", "display_address": ["1118 154th St", "Whitestone, NY 11357"]}, "phone": "+17187678222", "display_phone": "(718) 767-8222", "distance": 18433.069032068037}, {"id": "CCBy_QYHbTtPrAKHS3pqHg", "alias": "pita-palace-brooklyn", "name": "Pita Palace", "image_url": "https://s3-media1.fl.yelpcdn.com/bphoto/oZf-LDI-2hmzVkMRDJSdXg/o.jpg", "is_closed": false, "url": "https://www.yelp.com/biz/pita-palace-brooklyn?adjust_creative=umuXYnmbREaxDykzV5C6ZQ&utm_campaign=yelp_api_v3&utm_medium=api_v3_business_search&utm_source=umuXYnmbREaxDykzV5C6ZQ", "review_count": 234, "categories": [{"alias": "mideastern", "title": "Middle Eastern"}, {"alias": "falafel", "title": "Falafel"}], "rating": 5.0, "coordinates": {"latitude": 40.7172485, "longitude": -73.9448511}, "transactions": [], "price": "$", "location": {"address1": "413 Graham Ave", "address2": "", "address3": "", "city": "Brooklyn", "zip_code": "11211", "country": "US", "state": "NY", "display_address": ["413 Graham Ave", "Brooklyn, NY 11211"]}, "phone": "+17183830550", "display_phone": "(718) 383-0550", "distance": 4369.092161976518}, {"id": "-rqqnZeGmwyfkqoRskSO1g", "alias": "koroni-souvlaki-and-grill-astoria", "name": "Koroni Souvlaki and Grill", "image_url": "https://s3-media2.fl.yelpcdn.com/bphoto/MM1875_eqxJsglQLOe8fYA/o.jpg", "is_closed": false, "url": "https://www.yelp.com/biz/koroni-souvlaki-and-grill-astoria?adjust_creative=umuXYnmbREaxDykzV5C6ZQ&utm_campaign=yelp_api_v3&utm_medium=api_v3_business_search&utm_source=umuXYnmbREaxDykzV5C6ZQ", "review_count": 261, "categories": [{"alias": "mediterranean", "title": "Mediterranean"}, {"alias": "greek", "title": "Greek"}, {"alias": "soup", "title": "Soup"}], "rating": 5.0, "coordinates": {"latitude": 40.768544, "longitude": -73.92121}, "transactions": ["delivery", "pickup"], "price": "$$", "location": {"address1": "29-37 Newtown Ave", "address2": "", "address3": null, "city": "Astoria", "zip_code": "11102", "country": "US", "state": "NY", "display_address": ["29-37 Newtown Ave", "Astoria, NY 11102"]}, "phone": "+17184898820", "display_phone": "(718) 489-8820", "distance": 9335.07581240148}, {"id": "uEjX8iic3W16rU3bRkCjyg", "alias": "sal-kris-and-charlies-deli-astoria", "name": "Sal, Kris, & Charlie's Deli", "image_url": "https://s3-media4.fl.yelpcdn.com/bphoto/j9Peg7MrmL1-HPx-2lXvBw/o.jpg", "is_closed": false, "url": "https://www.yelp.com/biz/sal-kris-and-charlies-deli-astoria?adjust_creative=umuXYnmbREaxDykzV5C6ZQ&utm_campaign=yelp_api_v3&utm_medium=api_v3_business_search&utm_source=umuXYnmbREaxDykzV5C6ZQ", "review_count": 1055, "categories": [{"alias": "delis", "title": "Delis"}, {"alias": "sandwiches", "title": "Sandwiches"}], "rating": 4.5, "coordinates": {"latitude": 40.773326878163, "longitude": -73.9113807678223}, "transactions": [], "price": "$", "location": {"address1": "33-12 23rd Ave", "address2": "", "address3": "", "city": "Astoria", "zip_code": "11105", "country": "US", "state": "NY", "display_address": ["33-12 23rd Ave", "Astoria, NY 11105"]}, "phone": "+17182789240", "display_phone": "(718) 278-9240", "distance": 10284.478353140901}], "total": 25500, "region": {"center": {"longitude": -73.99429321289062, "latitude": 40.70544486444615}}}